[
    {
        "address": "\u3012277-0005 \u5343\u8449\u770c\u67cf\u5e02\u67cf\uff11\u4e01\u76ee\uff11\u2212\uff11",
        "id": 1,
        "lat": "35.8593945",
        "lng": "139.9709164"
    },
    {
        "address": "\u3012270-1151 \u5343\u8449\u770c\u6211\u5b6b\u5b50\u5e02\u672c\u753a\uff12\u4e01\u76ee\uff11\u2212\uff11",
        "id": 2,
        "lat": "35.8725176",
        "lng": "140.0085918"
    },
    {
        "address": "\u3012271-0092 \u5343\u8449\u770c\u677e\u6238\u5e02\u677e\u6238",
        "id": 3,
        "lat": "35.778639",
        "lng": "139.8941191"
    },
    {
        "address": "\u3012270-0017 \u5343\u8449\u770c\u677e\u6238\u5e02\u5e78\u8c37",
        "id": 4,
        "lat": "35.8257108",
        "lng": "139.9195103"
    },
    {
        "address": "\u3012341-0009 \u57fc\u7389\u770c\u4e09\u90f7\u5e02\u65b0\u4e09\u90f7\u3089\u3089\u30b7\u30c6\u30a3\uff12\u4e01\u76ee\uff14",
        "id": 5,
        "lat": "35.8575223",
        "lng": "139.8686523"
    },
    {
        "address": "\u3012273-0031 \u5343\u8449\u770c\u8239\u6a4b\u5e02\u897f\u8239\uff14\u4e01\u76ee\uff12\uff17\u2212\uff17",
        "id": 6,
        "lat": "35.7079209",
        "lng": "139.9574108"
    },
    {
        "address": "\u3012278-0037 \u5343\u8449\u770c\u91ce\u7530\u5e02\u91ce\u7530\uff11\uff12\uff18",
        "id": 7,
        "lat": "35.9437295",
        "lng": "139.8681266"
    },
    {
        "address": "\u3012301-0033 \u8328\u57ce\u770c\u9f8d\u30b1\u5d0e\u5e02\u4f50\u8cab\u753a",
        "id": 8,
        "lat": "35.9670154",
        "lng": "140.0832466"
    },
    {
        "address": "\u3012300-0871 \u8328\u57ce\u770c\u571f\u6d66\u5e02\u8352\u5ddd\u6c96\u6771\uff12\u4e01\u76ee\uff11",
        "id": 9,
        "lat": "36.0321243",
        "lng": "140.1655189"
    },
    {
        "address": "\u3012300-0035 \u8328\u57ce\u770c\u571f\u6d66\u5e02\u6709\u660e\u753a\uff12",
        "id": 10,
        "lat": "36.0773623",
        "lng": "140.2042932"
    },
    {
        "address": "\u3012344-0061 \u57fc\u7389\u770c\u6625\u65e5\u90e8\u5e02\u7c95\u58c1\uff11\u4e01\u76ee\uff11\uff10\u2212\uff11",
        "id": 11,
        "lat": "35.9798549",
        "lng": "139.7498395"
    },
    {
        "address": "\u3012305-0031 \u8328\u57ce\u770c\u3064\u304f\u3070\u5e02\u543e\u59bb\uff12\u4e01\u76ee\uff11\uff12\uff18",
        "id": 12,
        "lat": "36.0844342",
        "lng": "140.1071753"
    },
    {
        "address": "\u3012345-0801 \u57fc\u7389\u770c\u5357\u57fc\u7389\u90e1\u5bae\u4ee3\u753a\u767e\u9593\uff12\u4e01\u76ee\uff13",
        "id": 13,
        "lat": "36.0252015",
        "lng": "139.7253307"
    },
    {
        "address": "\u3012343-0845 \u57fc\u7389\u770c\u8d8a\u8c37\u5e02\u5357\u8d8a\u8c37\uff11\u4e01\u76ee",
        "id": 14,
        "lat": "35.8731481",
        "lng": "139.788098"
    },
    {
        "address": "\u3012270-0128 \u5343\u8449\u770c\u6d41\u5c71\u5e02 \u304a\u304a\u305f\u304b\u306e\u68ee\u897f1-1-1",
        "id": 15,
        "lat": "35.8719089",
        "lng": "139.9230522"
    },
    {
        "address": "\u3012310-0015 \u8328\u57ce\u770c\u6c34\u6238\u5e02\u5bae\u753a\uff11\u4e01\u76ee",
        "id": 16,
        "lat": "36.3704352",
        "lng": "140.4727227"
    },
    {
        "address": "\u3012312-0045 \u8328\u57ce\u770c\u3072\u305f\u3061\u306a\u304b\u5e02\u52dd\u7530\u4e2d\u592e\uff11",
        "id": 17,
        "lat": "36.3951913",
        "lng": "140.5237023"
    },
    {
        "address": "\u3012311-4141 \u8328\u57ce\u770c\u6c34\u6238\u5e02\u8d64\u585a\uff11\u4e01\u76ee",
        "id": 18,
        "lat": "36.3819124",
        "lng": "140.4140985"
    },
    {
        "address": "\u3012309-1735 \u8328\u57ce\u770c\u7b20\u9593\u5e02\u53cb\u90e8\u99c5\u524d\uff11",
        "id": 19,
        "lat": "36.3504885",
        "lng": "140.3038649"
    }
]