[
    {
        "id": 1,
        "address": "〒277-0005 千葉県柏市柏１丁目１−１",
        "lat": "35.8593945",
        "lng": "139.9709164"
    },
    {
        "id": 2,
        "address": "〒270-1151 千葉県我孫子市本町２丁目１−１",
        "lat": "35.8725176",
        "lng": "140.0085918"
    },
    {
        "id": 3,
        "address": "〒271-0092 千葉県松戸市松戸",
        "lat": "35.778639",
        "lng": "139.8941191"
    },
    {
        "id": 4,
        "address": "〒270-0017 千葉県松戸市幸谷",
        "lat": "35.8257108",
        "lng": "139.9195103"
    },
    {
        "id": 5,
        "address": "〒341-0009 埼玉県三郷市新三郷ららシティ２丁目４",
        "lat": "35.8575223",
        "lng": "139.8686523"
    },
    {
        "id": 6,
        "address": "〒273-0031 千葉県船橋市西船４丁目２７−７",
        "lat": "35.7079209",
        "lng": "139.9574108"
    },
    {
        "id": 7,
        "address": "〒278-0037 千葉県野田市野田１２８",
        "lat": "35.9437295",
        "lng": "139.8681266"
    },
    {
        "id": 8,
        "address": "〒301-0033 茨城県龍ケ崎市佐貫町",
        "lat": "35.9670154",
        "lng": "140.0832466"
    },
    {
        "id": 9,
        "address": "〒300-0871 茨城県土浦市荒川沖東２丁目１",
        "lat": "36.0321243",
        "lng": "140.1655189"
    },
    {
        "id": 10,
        "address": "〒300-0035 茨城県土浦市有明町２",
        "lat": "36.0773623",
        "lng": "140.2042932"
    },
    {
        "id": 11,
        "address": "〒344-0061 埼玉県春日部市粕壁１丁目１０−１",
        "lat": "35.9798549",
        "lng": "139.7498395"
    },
    {
        "id": 12,
        "address": "〒305-0031 茨城県つくば市吾妻２丁目１２８",
        "lat": "36.0844342",
        "lng": "140.1071753"
    },
    {
        "id": 13,
        "address": "〒345-0801 埼玉県南埼玉郡宮代町百間２丁目３",
        "lat": "36.0252015",
        "lng": "139.7253307"
    },
    {
        "id": 14,
        "address": "〒343-0845 埼玉県越谷市南越谷１丁目",
        "lat": "35.8731481",
        "lng": "139.788098"
    },
    {
        "id": 15,
        "address": "〒332-0017 埼玉県川口市栄町３丁目１−２１",
        "lat": "35.8023579",
        "lng": "139.7154973"
    }
]